[
  {
    "id": 1,
    "name": "Soul Food Kitchen",
    "type": "Restaurant",
    "businessType": "physical",
    "owner": "Black-owned",
    "description": "Authentic soul food restaurant serving the community for over 20 years.",
    "rating": "4.5 (127)",
    "address": "123 Main St, Buffalo, NY",
    "city": "Buffalo",
    "state": "NY",
    "serviceArea": "Buffalo Metro Area",
    "phone": "(716) 555-0123",
    "hours": "Mon-Sat: 11AM-9PM",
    "email": "info@soulfoodkitchen.com",
    "website": "https://soulfoodkitchen.com",
    "image": "https://images.unsplash.com/photo-1555939594-58d7cb561ad1?w=400&h=200&fit=crop",
    "verified": true,
    "dateAdded": "2025-01-01",
    "status": "approved",
    "verificationSubmitted": true,
    "verificationMethod": "business-license",
    "verificationDetails": "BL-2024-001234"
  },
  {
    "id": 2,
    "name": "Tech Solutions Plus",
    "type": "Technology",
    "businessType": "physical",
    "owner": "Asian-owned",
    "description": "Full-service IT consulting and software development company.",
    "rating": "4.8 (89)",
    "address": "456 Tech Ave, Buffalo, NY",
    "city": "Buffalo",
    "state": "NY",
    "serviceArea": "Western New York",
    "phone": "(716) 555-0456",
    "hours": "Mon-Fri: 9AM-6PM",
    "email": "contact@techsolutionsplus.com",
    "website": "https://techsolutionsplus.com",
    "image": "https://images.unsplash.com/photo-1560472354-b33ff0c44a43?w=400&h=200&fit=crop",
    "verified": true,
    "dateAdded": "2025-01-02",
    "status": "approved",
    "verificationSubmitted": true,
    "verificationMethod": "ein",
    "verificationDetails": "EIN-12-3456789"
  },
  {
    "id": 3,
    "name": "Digital Dreams Marketing",
    "type": "Technology",
    "businessType": "online",
    "owner": "Black-owned",
    "description": "Full-service digital marketing agency specializing in social media management and web design for minority-owned businesses.",
    "rating": "4.9 (67)",
    "address": "Online Business",
    "city": "Buffalo",
    "state": "NY",
    "serviceArea": "Nationwide",
    "phone": "(716) 555-DIGI",
    "hours": "Mon-Fri: 9AM-6PM EST",
    "email": "hello@digitaldreamsmarketing.com",
    "website": "https://digitaldreamsmarketing.com",
    "image": "https://images.unsplash.com/photo-1460925895917-afdab827c52f?w=400&h=200&fit=crop",
    "verified": true,
    "dateAdded": "2025-01-03",
    "status": "approved",
    "verificationSubmitted": true,
    "verificationMethod": "ein",
    "verificationDetails": "EIN-87-6543210"
  },
  {
    "id": 4,
    "name": "Abuela's Market",
    "type": "Grocery",
    "businessType": "physical",
    "owner": "Hispanic-owned",
    "description": "Family-owned grocery store with authentic Hispanic foods.",
    "rating": "4.6 (203)",
    "address": "789 Market St, Rochester, NY",
    "city": "Rochester",
    "state": "NY",
    "serviceArea": "Rochester Area",
    "phone": "(585) 555-0789",
    "hours": "Daily: 8AM-10PM",
    "email": "info@abuelasmarket.com",
    "website": "https://abuelasmarket.com",
    "image": "https://images.unsplash.com/photo-1578662996442-48f60103fc96?w=400&h=200&fit=crop",
    "verified": true,
    "dateAdded": "2025-01-04",
    "status": "approved",
    "verificationSubmitted": false,
    "verificationMethod": "",
    "verificationDetails": ""
  },
  {
    "id": 5,
    "name": "Mobile Beauty Services",
    "type": "Beauty",
    "businessType": "mobile",
    "owner": "Black-owned",
    "description": "Professional mobile beauty services bringing salon-quality treatments to your location.",
    "rating": "4.8 (134)",
    "address": "Mobile Service",
    "city": "Buffalo",
    "state": "NY",
    "serviceArea": "Buffalo & Surrounding Areas",
    "phone": "(716) 555-GLAM",
    "hours": "Tue-Sat: 8AM-8PM (By Appointment)",
    "email": "book@mobilebeautyservices.com",
    "website": "https://mobilebeautyservices.com",
    "image": "https://images.unsplash.com/photo-1560066984-138dadb4c035?w=400&h=200&fit=crop",
    "verified": true,
    "dateAdded": "2025-01-05",
    "status": "approved",
    "verificationSubmitted": true,
    "verificationMethod": "dba",
    "verificationDetails": "DBA-2024-MBS001"
  },
  {
    "id": 6,
    "name": "Buffalo Comedy Club",
    "type": "Entertainment",
    "businessType": "physical",
    "owner": "Hispanic-owned",
    "description": "Live comedy shows and entertainment venue featuring local and touring comedians.",
    "rating": "4.4 (92)",
    "address": "567 Laugh Lane, Buffalo, NY",
    "city": "Buffalo",
    "state": "NY",
    "serviceArea": "Buffalo Metro Area",
    "phone": "(716) 555-JOKE",
    "hours": "Wed-Sat: 7PM-11PM",
    "email": "info@buffalocomedy.com",
    "website": "https://buffalocomedy.com",
    "image": "https://images.unsplash.com/photo-1516450360452-9312f5e86fc7?w=400&h=200&fit=crop",
    "verified": true,
    "dateAdded": "2025-01-06",
    "status": "approved",
    "verificationSubmitted": false,
    "verificationMethod": "",
    "verificationDetails": ""
  },
  {
    "id": 7,
    "name": "EcoStyle Online Boutique",
    "type": "Retail",
    "businessType": "online",
    "owner": "Asian-owned",
    "description": "Sustainable fashion boutique offering eco-friendly clothing and accessories with worldwide shipping.",
    "rating": "4.7 (89)",
    "address": "Online Store",
    "city": "Syracuse",
    "state": "NY",
    "serviceArea": "Worldwide Shipping",
    "phone": "(315) 555-STYLE",
    "hours": "24/7 Online Shopping",
    "email": "shop@ecostyleonline.com",
    "website": "https://ecostyleonline.com",
    "image": "https://images.unsplash.com/photo-1441986300917-64674bd600d8?w=400&h=200&fit=crop",
    "verified": true,
    "dateAdded": "2025-01-07",
    "status": "approved",
    "verificationSubmitted": true,
    "verificationMethod": "business-license",
    "verificationDetails": "BL-2024-ESO789"
  }
]

